# Work and Home
- name: Discount Filters
  latitude:  !secret df_latitude
  longitude: !secret df_longitude
  radius: 100
  icon: mdi:office-building
- name: Home
  latitude: !secret latitude
  longitude: !secret longitude
  radius: 50
  icon: mdi:home
## Schools
- name: Clinton Young Elementary
  latitude: 39.683258
  longitude: -86.115190
  radius: 150
  icon: mdi:school
## Grocery Stores
# Meijer
- name: Meijer
  latitude: 39.664157
  longitude: -86.077283
  radius: 130
  icon: mdi:cart
# Costco
- name: Costco
  latitude: 39.638104
  longitude: -86.089041
  radius: 150
  icon: mdi:cart
# Kroger
- name: Kroger on Edgewood
  latitude: 39.680415
  longitude: -86.129483
  radius: 75
  icon: mdi:cart
- name: Kroger on County Line
  latitude: 39.639451
  longitude: -86.080652
  radius: 100
  icon: mdi:cart
- name: Kroger on Thompson
  latitude: 39.696727
  longitude: -86.077530
  radius: 130
  icon: mdi:cart
# Walmart
- name: Walmart on Emerson
  latitude: 39.699606
  longitude: -86.085103
  radius: 130
  icon: mdi:cart
- name: Walmart on County Line
  latitude: 39.634121
  longitude: -86.080015
  radius: 130
  icon: mdi:cart
## Home Improvement Stores
# Lowes
- name: Lowes
  latitude: 39.702188
  longitude: -86.085412
  radius: 120
  icon: mdi:cart
# Home Depot
- name: Home Depot
  latitude: 39.667425
  longitude: -86.088839
  radius: 120
  icon: mdi:cart
# Menards
- name: Menards
  latitude: 39.663829
  longitude: -86.084462
  radius: 100
  icon: mdi:cart
## Craft Stores
# Michaels
- name: Michaels
  latitude: 39.648204
  longitude: -86.138420
  radius: 100
  icon: mdi:cart
## Restaurants
- name: Oaken Barrel
  latitude: 39.615762
  longitude: -86.090704
  radius: 25
  icon: mdi:food
- name: Sushi Club
  latitude: 39.649916
  longitude: -86.085521
  radius: 25
  icon: mdi:food
- name: Longhorn Steakhouse
  latitude: 39.666509
  longitude: -86.086285
  radius: 25
  icon: mdi:food
- name: Scotty's Brewhouse
  latitude: 39.663632
  longitude: -86.090758
  radius: 25
  icon: mdi:food
- name: Texas Roadhouse
  latitude: 39.664059
  longitude: -86.093051
  radius: 25
  icon: mdi:food
- name: Cracker Barrell
  latitude: 39.666553
  longitude: -86.093968
  radius: 25
  icon: mdi:food
- name: Ponderosa
  latitude: 39.694143
  longitude: -86.081684
  radius: 25
  icon: mdi:food
## Fast Food or Take Out
# McDonalds
- name: McDonald's on E Main
  latitude: 39.614802
  longitude: -86.079275
  radius: 25
  icon: mdi:food
- name: McDonalds on Southport
  latitude: 39.665407
  longitude: -86.083196
  radius: 25
  icon: mdi:food
- name: McDonald's on Gray Rd
  latitude: 39.665936
  longitude: -86.098022
  radius: 25
  icon: mdi:food
- name: McDonald's on Thompson
  latitude: 39.700766
  longitude: -86.081559
  radius: 25
  icon: mdi:food
# Taco Bell
- name: Taco Bell on E Main
  latitude: 39.613942
  longitude: -86.080034
  radius: 25
  icon: mdi:food
- name: Taco Bell on County Line
  latitude: 39.636976
  longitude: -86.083730
  radius: 25
  icon: mdi:food
- name: Taco Bell on Southport
  latitude: 39.666410
  longitude: -86.078049
  radius: 25
  icon: mdi:food
- name: Taco Bell on Thompson
  latitude: 39.694260
  longitude: -86.075006
  radius: 25
  icon: mdi:food
# Buffalo Wild Wings
- name: Buffalo Wild Wings on County Line
  latitude: 39.635836
  longitude: -86.078337
  radius: 25
  icon: mdi:food
# Panda Express
- name: Panda Express on Southport
  latitude: 39.665308
  longitude: -86.083698
  radius: 25
  icon: mdi:food
# Wendy's
- name: Wendy's on Southport
  latitude: 39.665153
  longitude: -86.092889
  radius: 25
  icon: mdi:food
- name: Wendy's on Thompson
  latitude: 39.695026
  longitude: -86.079172
  radius: 25
  icon: mdi:food
# Steak n Shake
- name: Steak 'n Shake
  latitude: 39.664770
  longitude: -86.094210
  radius: 25
  icon: mdi:food
# Burger King
- name: Burger King on Gray Rd
  latitude: 39.666775
  longitude: -86.095733
  radius: 25
  icon: mdi:food
# Panera
- name: Panera Bread
  latitude: 39.665493
  longitude: -86.076893
  radius: 25
  icon: mdi:food
# Jimmy Johns
- name: Jimmy Johns
  latitude: 39.665604
  longitude: -86.076302
  radius: 25
  icon: mdi:food
# Rally's
- name: Rally's
  latitude: 39.665538
  longitude: -86.078653
  radius: 25
  icon: mdi:food
# Chick-fil-A
- name: Chick-fil-A
  latitude: 39.666438
  longitude: -86.078659
  radius: 25
  icon: mdi:food
# Arby's
- name: Arby's on Southport
  latitude: 39.665500
  longitude: -86.080665
  radius: 25
  icon: mdi:food
- name: Arby's on Emerson
  latitude: 39.695663
  longitude: -86.081934
  radius: 25
  icon: mdi:food
# Subway
- name: Subway on Thompson
  latitude: 39.694925
  longitude: -86.081324
  radius: 25
  icon: mdi:food
# Wings Etc
- name: Wings Etc
  latitude: 39.695750
  longitude: -86.081344
  radius: 25
  icon: mdi:food